Country,Facility name,Facility type,Lat,Long
Uganda,Nyakibale Hospital,Hospital,-0.804,29.926
Uganda,Lwanda Health Centre III,Health Centre III,-0.692,31.439
Uganda,Mpara Health Centre III,Health Centre III,0.4667,30.4833
Burundi,Musenyi Centre de Santé,Health Centre,-3.2149,30.613
Uganda,Kanyogoga Health Centre II,Health Centre II,0.8025,31.5918
Uganda,Kabonero Health Centre II,Health Centre II,0.4667,30.1667
Uganda,Kicwamba Health Centre II,Health Centre II,0.0289,30.3882
Uganda,Kihembe Health Centre II,Health Centre II,-0.805,29.665
Uganda,Mbirizi Muslim Health Centre II,Health Centre II,-0.3889,31.4605
Burundi,Centre Communautaire Kamenge Centre de Santé,Health Centre,-3.3553,29.3847
Uganda,Yabweng Health Centre II,Health Centre II,2.1036,32.2382
Uganda,Bombo Health Centre III,Health Centre III,0.5771,32.544
Uganda,Abongo Health Centre II,Health Centre II,2.292,31.128
Uganda,Kagganda Health Centre II,Health Centre II,-0.3494,31.601
Uganda,Lwemikomago Health Centre II,Health Centre II,0.6068,31.3567
Uganda,Ngoma Health Centre IV,Health Centre IV,1.1608,32.0228
Uganda,Kako Health Centre III,Health Centre III,-0.3035,31.8042
Uganda,Butogonya Health Centre II,Health Centre II,0.6865,33.2425
Uganda,Namwaya Health Centre II,Health Centre II,0.7507,34.0562
Uganda,Ntusi Health Centre IV,Health Centre IV,-0.7969,29.8489
Rwanda,Ntaruka (nasho Kirehe) Health Centre,Health Centre,-2.1443,30.6907
Burundi,Gihogazi Centre de Santé,Health Centre,-3.1267,30.0015
Uganda,Galiboleka Health Centre II,Health Centre II,0.99,30.7792
Burundi,Rugunga Centre de Santé,Health Centre,-3.8744,30.0485
Uganda,Rakai Gayaza (DHIS2) Health Centre II,Health Centre II,-0.6291,31.4866
Rwanda,Nyabikenke Health Centre,Health Centre,-1.882,29.7698
Uganda,Nyongozi Health Centre II,Health Centre II,-0.7841,30.3281
Rwanda,Gihara Health Centre,Health Centre,-1.944,29.9615
Burundi,Gasenyi Centre de Santé,Health Centre,-3.2819,30.3967
Uganda,Nyakashebeya Health Centre II,Health Centre II,-1.0429,30.006
Uganda,Kalama New Site Health Centre II,Health Centre II,0.7901,31.62
Rwanda,Cyabingo Health Centre,Health Centre,-1.5854,29.6882
Uganda,Kumi Hospital,Hospital,1.5038,33.9349
Uganda,Mpoma Health Centre II,Health Centre II,0.4333,32.75
Uganda,Apoi Health Centre III,Health Centre III,1.7367,32.4973
Uganda,Zumbo Health Centre III,Health Centre III,2.4758,30.9259
Uganda,Birembo Health Centre II,Health Centre II,0.9225,31.1659
Burundi,Mungwa Centre de Santé,Health Centre,-3.4513,29.8807
Burundi,Bukeye Centre de Santé,Health Centre,-4.2937,29.9126
Burundi,Nomwe Centre de Santé,Health Centre,-2.5,30.4269
Uganda,Padre Pio Health Centre III,Health Centre III,0.179,30.449
Uganda,Kiruhura Kanoni Health Centre III,Health Centre III,-0.1203,30.6581
Uganda,Butiru Chrisco Health Centre III,Health Centre III,0.821,34.2963
Uganda,Kabule Health Centre III,Health Centre III,0.412,32.13
Uganda,Mukono COU Health Centre IV,Health Centre IV,0.383,32.767
Uganda,Buyobo Health Centre II,Health Centre II,1.1667,34.2833
Uganda,Butogota Health Centre II,Health Centre II,-0.878,29.648
Uganda,Villa Maria Hospital,Hospital,-0.33,31.7345
Uganda,Kabakedi Health Centre II,Health Centre II,0.8296,32.4998
Rwanda,Gahanga Health Centre,Health Centre,-2.027,30.1043
Burundi,Giteranyi Centre de Santé,Health Centre,-2.4813,30.4636
Uganda,Lugusulu Health Centre II,Health Centre II,-0.1833,31.4
Uganda,Anyiribu Health Centre III,Health Centre III,2.5627,31.1136
Burundi,Mpinga Centre de Santé,Health Centre,-4.0612,29.7746
Burundi,Taba I Centre de Santé,Health Centre,-2.9534,29.9797
Uganda,Bumanya Health Centre IV,Health Centre IV,1.005,33.498
Uganda,Rwabukoba Health Centre II,Health Centre II,-0.6601,29.9329
Uganda,Lokung Health Centre III,Health Centre III,3.5952,32.7068
Uganda,Walela Health Centre II,Health Centre II,2.5186,32.8477
Uganda,Kyamuhunga Health Centre III,Health Centre III,-0.4514,30.1133
Burundi,Rukuramigabo Centre de Santé,Health Centre,-2.5095,30.086
Uganda,Kabende Health Centre III,Health Centre III,0.9,30.45
Uganda,Nsozi Health Centre III,Health Centre III,1.2333,30.9333
Uganda,Nkokonjeru Hospital,Hospital,0.8263,32.9469
Uganda,Lawiyeadul Health Centre II,Health Centre II,2.9661,32.6967
Uganda,Atangi Health Centre III,Health Centre III,0.7642,34.2441
Uganda,Omatenga Health Centre III,Health Centre III,1.596,33.934
Burundi,Muramba Centre de Santé,Health Centre,-3.8808,29.5728
Uganda,Nichu Health Centre II,Health Centre II,3.0536,31.1296
Uganda,Kamdini Health Centre II,Health Centre II,2.2471,32.3376
Uganda,Olinga Health Centre II,Health Centre II,3.0623,32.0314
Uganda,Rwentsinga Health Centre II,Health Centre II,-0.451,30.6666
Uganda,Ngai Health Centre III,Health Centre III,2.522,32.523
Uganda,Kolir Health Centre III,Health Centre III,1.317,34.154
Uganda,Rwenyangye Health Centre II,Health Centre II,-1.17,30.167
Uganda,Kikooge Health Centre II,Health Centre II,1.5956,32.3064
Uganda,Lwamaggwa Government Health Centre III,Health Centre III,-0.549,31.249
Rwanda,Gasiza (musanze) Health Centre,Health Centre,-1.4517,29.6527
Burundi,Nyagahara Centre de Santé,Health Centre,-3.6987,30.2571
Uganda,Atura Health Centre II,Health Centre II,2.1194,32.3439
Uganda,Budini Health Centre III,Health Centre III,0.9313,33.534
Uganda,Wakiso Banda Health Centre II,Health Centre II,0.4322,32.4788
Uganda,Kibaire Health Centre II,Health Centre II,1.5019,31.505
Uganda,Rwanyamabare Health Centre II,Health Centre II,-0.3368,30.3671
Uganda,Lwatama Health Centre II,Health Centre II,0.986,33.674
Uganda,Loyoajonga Health Centre II,Health Centre II,2.6124,32.4751
Uganda,Kabyuma Health Centre II,Health Centre II,0.572,31.545
Uganda,Kijurera Health Centre II,Health Centre II,-1.2963,29.9744
Uganda,Ibuje Health Centre III,Health Centre III,1.9007,32.378
Uganda,Masaka Hospital,Hospital,-0.3445,31.7259
Uganda,Kidubuli Health Centre II,Health Centre II,0.6879,30.3066
Uganda,Rubondo Health Centre II,Health Centre II,-0.7,31.0667
Rwanda,Munanira Health Centre,Health Centre,-2.2124,29.6097
Uganda,Kawanda Health Centre III,Health Centre III,0.3775,32.5364
Uganda,Butoha Health Centre II,Health Centre II,-0.2598,30.1362
Uganda,Kireku Health Centre II,Health Centre II,0.9032,32.5962
Uganda,Karuruma Health Centre II,Health Centre II,-0.874,30.1118
Uganda,Akisim Health Centre III,Health Centre III,1.25,33.7333
Uganda,Kayogera Health Centre II,Health Centre II,0.4815,33.7608
Uganda,Namwendwa Health Centre II,Health Centre II,0.63,33.132
Uganda,Bweramule Health Centre II,Health Centre II,0.9667,30.2
Uganda,Nyakanyinya Health Centre II,Health Centre II,-0.7166,29.95
Uganda,Stella Maris Ntoroko Health Centre III,Health Centre III,1.0464,30.5418
Burundi,Nyarurambi Centre de Santé,Health Centre,-3.3359,30.0718
Uganda,Bukimbiri Health Centre III,Health Centre III,-1.185,29.696
Uganda,Tiira Health Centre II,Health Centre II,0.5133,34.0776
Uganda,Kyakapeya Health Centre II,Health Centre II,1.447,31.405
Uganda,Kahondo Health Centre II,Health Centre II,-1.2759,30.1551
Rwanda,Bungwe (Ngororero) Fosacom Community-owned health facility,Health Post ,-1.9141,29.4818
Uganda,Buluba Hospital,Hospital,0.4833,33.4
Uganda,Aywee Health Centre III,Health Centre III,2.7533,32.3165
Uganda,Timu Health Centre II,Health Centre II,3.3576,33.9779
Burundi,Rutovu Centre de Santé,Health Centre,-3.8811,29.8447
Uganda,Ruti Health Centre II,Health Centre II,-0.6273,30.6206
Rwanda,Karangazi Health Centre,Health Centre,-1.3883,30.3885
Rwanda,Kinihira (Rulindo) Health Centre,Health Centre,-1.661,29.9885
Uganda,Kiyanja Health Centre II,Health Centre II,0.233,33.751
Uganda,Karambi Health Centre III,Health Centre III,0.8554,30.1942
Uganda,Kiyoora Health Centre II,Health Centre II,-0.8405,30.3396
Uganda,Rutaka Health Centre III,Health Centre III,-1.1589,29.6485
Uganda,Karin Medical Central Health Centre II,Health Centre II,2.8003,32.3489
Uganda,Rusheeshe Health Centre III,Health Centre III,-0.9589,29.9233
Uganda,Tororo St. Anthony Hospital,Hospital,0.7028,34.1699
Uganda,Butangasi Health Centre II,Health Centre II,0.3692,34.0117
Uganda,Kashesha Agape Community Health Centre II,Health Centre II,-0.8029,29.6491
Burundi,Museno Centre de Santé,Health Centre,-3.942,29.954
Uganda,Kihyo Health Centre II,Health Centre II,0.3622,30.1464
Uganda,Ongica Health Centre III,Health Centre III,2.2914,32.9652
Rwanda,Crete Congo Nil Health Centre,Health Centre,-1.964,29.386
Rwanda,Murara Health Centre,Health Centre,-1.6724,29.2559
Uganda,Okuyo Health Centre II,Health Centre II,3.353,31.27
Uganda,Kiwangala Health Centre IV,Health Centre IV,-0.474,31.509
Rwanda,Gihundwe District Hospital,District Hospital,-2.483,28.9147
Uganda,Nkaiza Health Centre II,Health Centre II,0.6518,33.7825
Rwanda,Kibingo (nyamasheke) Health Centre,Health Centre,-2.1995,29.2612
Burundi,Gahararo Centre de Santé,Health Centre,-2.7549,30.2714
Uganda,Kagadi Hospital,Hospital,0.951,30.806
Uganda,Matuga Health Centre II,Health Centre II,0.457,32.52
Uganda,Kyabandara Health Centre II,Health Centre II,-0.6072,30.3522
Burundi,Nyanzalac Hôpital de District,Hôpital de District,-4.3456,29.6002
Rwanda,Bisate Health Centre,Health Centre,-1.4558,29.5252
Uganda,Kamukumbi Health Centre II,Health Centre II,0.0109,29.7407
Uganda,Bugalo Health Centre III,Health Centre III,0.9183,33.8294
Uganda,Oteno Health Centre II,Health Centre II,2.3956,33.1302
Uganda,Kimenyedde Health Centre II,Health Centre II,0.517,32.832
Uganda,Kitimba Health Centre III,Health Centre III,0.2963,32.2675
Uganda,Buyaya Health Centre II,Health Centre II,1.1852,34.2486
Rwanda,Shyogwe Health Centre,Health Centre,-2.1257,29.7775
Uganda,Nabuli Health Centre III,Health Centre III,1.0973,33.8207
Rwanda,Rwesero Health Centre,Health Centre,-1.7993,30.1766
Uganda,Lopeei Health Centre III,Health Centre III,2.5666,34.2744
Uganda,Kijura Health Centre III,Health Centre III,0.758,30.417
Uganda,Aromo Health Centre III,Health Centre III,2.617,32.82
Uganda,Lumino Foc Rev Health Centre III,Health Centre III,0.3267,33.9874
Uganda,Mpugwe Health Centre III,Health Centre III,-0.283,31.807
Uganda,Kalama Soce Health Centre II,Health Centre II,0.7865,31.6131
Uganda,Nabbingo Health Centre II,Health Centre II,0.293,32.482
Uganda,Nyanja Health Centre II,Health Centre II,0.4581,32.6821
Uganda,Liko Health Centre II,Health Centre II,3.2627,30.8993
Uganda,Lurujo Health Centre II,Health Centre II,3.3582,31.013
Uganda,Nyaruhanga Health Centre II,Health Centre II,-0.9656,30.6703
Uganda,Nyakabaare Health Centre II,Health Centre II,-0.6443,30.505
Uganda,Nankusi Health Centre II,Health Centre II,1.1282,34.2159
Uganda,Kyanya SDA Health Centre II,Health Centre II,0.336,30.0759
Uganda,Kazo Health Centre IV,Health Centre IV,0.049,30.757
Uganda,Milne Medical Centre Health Centre II,Health Centre II,0.3571,32.6212
Uganda,Ajeri Health Centre II,Health Centre II,3.1692,31.7605
Uganda,Katabok Health Centre II,Health Centre II,2.5951,33.7218
Uganda,Kangole Health Centre II,Health Centre II,1.5333,34.15
Burundi,Nyuro Centre de Santé,Health Centre,-3.1639,30.65
Rwanda,Kibogora Health Centre,Health Centre,-2.3307,29.1373
Uganda,Family Health Care Health Centre II,Health Centre II,0.7114,30.0633
Uganda,Awoo Health Centre II,Health Centre II,2.5308,32.4137
Uganda,Mwenge Health Centre III,Health Centre III,0.6667,30.6667
Uganda,Amuru Health Centre II,Health Centre II,2.8171,31.8614
Rwanda,Kacyiru District Hospital,District Hospital,-1.9331,30.0752
Uganda,Nyarubare Health Centre III,Health Centre III,-0.8483,30.2157
Uganda,Lwangiri Health Centre II,Health Centre II,0.4667,31.6
Uganda,Kikolimbo Health Centre II,Health Centre II,0.999,31.7001
Uganda,Oseera Health Centre II,Health Centre II,1.5733,33.9673
Burundi,Murenda Centre de Santé,Health Centre,-3.6019,29.951
Uganda,Mulonzi Health Centre II,Health Centre II,1.597,32.213
Uganda,St. Michael-Wera Health Centre III,Health Centre III,1.8929,33.7517
Uganda,Lwanjusi Health Centre III,Health Centre III,0.8685,34.2534
Uganda,Mbula Health Centre II,Health Centre II,0.8167,34.1
Uganda,St. Matia Lusanja Health Centre II,Health Centre II,0.7667,32.3
Burundi,Mutambara Centre de Santé,Health Centre,-4.0056,29.4563
Burundi,Rugabano Centre de Santé,Health Centre,-3.0883,30.2735
Uganda,Ishaka Adventist Hospital,Hospital,-0.543,30.1386
Uganda,Lorengedwat Health Centre III,Health Centre III,2.384,34.582
Uganda,Naggojje Health Centre III,Health Centre III,0.431,32.874
Uganda,Bulubandi Health Centre II,Health Centre II,0.6,33.4833
Rwanda,Mweya Health Centre,Health Centre,-2.3315,29.6426
Uganda,Kateta NGO Health Centre II,Health Centre II,1.4469,33.4987
Uganda,Buyoga Health Centre II,Health Centre II,0.9304,33.3578
Burundi,Banga Centre de Santé,Health Centre,-3.1203,29.61
Rwanda,Bwisige Health Centre,Health Centre,-1.5796,30.1543
Burundi,Musama Centre de Santé,Health Centre,-2.7075,30.2249
Uganda,Ndejje Health Centre II,Health Centre II,0.6088,32.4765
Uganda,Kiruddu Health Centre IV,Health Centre IV,0.2478,32.6126
Uganda,Kaplelko Health Centre II,Health Centre II,1.4116,34.4096
Rwanda,Ruhashya Health Centre,Health Centre,-2.4797,29.7293
Uganda,Orum Health Centre IV,Health Centre IV,2.379,33.363
Uganda,Kyere Health Centre III,Health Centre III,1.4357,33.6171
Uganda,Pokongo Health Centre II,Health Centre II,0.6455,34.1
Uganda,Nyamatsinda Health Centre II,Health Centre II,-1.1363,29.7254
Uganda,Kyakonda Health Centre II,Health Centre II,-0.6438,31.5391
Uganda,Katungu Health Centre II,Health Centre II,-0.5519,30.1372
Uganda,St. Joseph Kitovu Hospital,Hospital,-0.3333,31.7667
Uganda,Busitema Health Centre III,Health Centre III,0.5434,34.0277
Uganda,Coope Health Centre II,Health Centre II,2.8618,32.2774
Uganda,Adok Health Centre II,Health Centre II,1.9909,32.9179
Rwanda,Gatenga Health Centre,Health Centre,-1.9801,30.0918
Rwanda,Ruhengeri Referral Hospital,Referral Hospital,-1.5058,29.6367
Uganda,Kaderuna Health Centre III,Health Centre III,1.1237,33.9351
Uganda,Kitanyata Health Centre II,Health Centre II,1.875,31.814
Burundi,Kabuyenge Centre de Santé,Health Centre,-3.3984,30.6544
Burundi,Nyaruhinda Centre de Santé,Health Centre,-2.9627,30.2294
Burundi,Ruganira Centre de Santé,Health Centre,-3.156,29.9057
Uganda,Nyamiringa Health Centre II,Health Centre II,0.9877,31.8554
Uganda,Alanyi Health Centre III,Health Centre III,3.4476,31.9107
Uganda,Kabusota Health Centre II,Health Centre II,-0.5642,31.2258
Uganda,Serere Health Centre IV,Health Centre IV,1.586,33.408
Uganda,Nyamabuga Health Centre III,Health Centre III,0.715,30.514
Uganda,Bugongi Health Centre III,Health Centre III,-0.6367,30.2508
Uganda,Kyamusisi Health Centre III,Health Centre III,0.605,31.929
Uganda,Adwir Health Centre II,Health Centre II,2.3294,33.6801
Uganda,Kibengo Health Centre II,Health Centre II,-0.8667,30.8833
Uganda,City Square Health Care Health Centre II,Health Centre II,0.3201,32.5834
Uganda,Maanyi Health Centre III,Health Centre III,0.2733,31.9558
Uganda,Ahamadiya Health Centre III,Health Centre III,1.0823,34.1798
Uganda,Rugarama Hospital,Hospital,-1.237,29.975
Uganda,Bwindi Health Centre III,Health Centre III,-1.168,29.995
Uganda,Lagile Health Centre II,Health Centre II,2.7249,32.8573
Uganda,Kalyowa Health Centre II,Health Centre II,0.7761,33.2683
Rwanda,Nyarurema Health Centre,Health Centre,-1.4051,30.1651
Uganda,Bugitimwa Health Centre II,Health Centre II,1.1514,34.4034
Uganda,Fr. Bilbao Health Centre III,Health Centre III,3.6694,31.7857
Uganda,Itakaibolu Health Centre II,Health Centre II,0.6491,33.3631
Rwanda,Ruhango Provincial Hospital,Provincial Hospital,-2.1937,29.9055
Uganda,Nakasanga Health Centre II,Health Centre II,1.0244,34.0974
Uganda,Muggi Health Centre II,Health Centre II,0.4871,33.4725
Uganda,Otheko Health Centre II,Health Centre II,2.507,31.026
Uganda,Ngoleriet Health Centre II,Health Centre II,2.503,34.48
Uganda,Rukooki Health Centre III,Health Centre III,0.216,30.083
Rwanda,Rusasa Health Centre,Health Centre,-1.4511,29.8704
Rwanda,Matyazo Health Centre,Health Centre,-2.5975,29.7204
Uganda,Azur Health Centre IV,Health Centre IV,1.4363,31.3377
Rwanda,Kibirizi (Nyamagabe) Health Centre,Health Centre,-2.4349,29.56
Uganda,Kapelebyong Health Centre IV,Health Centre IV,2.2785,33.7746
Uganda,Opia Health Centre III,Health Centre III,2.8249,30.9017
Uganda,Barr Health Centre III,Health Centre III,2.24,33.0427
Uganda,Irapa Health Centre II,Health Centre II,1.0417,33.2468
Uganda,Mubende Regional Referral Hospital,Regional Referral Hospital,0.5892,31.36
Uganda,Kasokwe Health Centre II,Health Centre II,0.6405,33.8149
Uganda,Burora Health Centre II,Health Centre II,1.0833,30.8833
Uganda,Kakinga Health Centre II,Health Centre II,0.2,30.6333
Uganda,Kikwatambogo Health Centre II,Health Centre II,0.865,31.724
Uganda,Namulonge Health Centre III,Health Centre III,0.5297,32.6025
Uganda,Nyamayalwo Health Centre II,Health Centre II,0.359,32.5657
Uganda,Butove Health Centre II,Health Centre II,0.9831,33.9614
Uganda,Ayara Health Centre II,Health Centre II,2.3599,32.8944
Burundi,Minyare Centre de Santé,Health Centre,-3.2176,30.4928
Uganda,Buyaga Health Centre II,Health Centre II,-0.5563,31.7787
Uganda,Sigulu Health Centre III,Health Centre III,0.0996,33.8274
Uganda,Keyo Health Centre II,Health Centre II,2.8115,32.1857
Uganda,Kibuuka Health Centre II,Health Centre II,-0.5389,31.3181
Uganda,Butiti Health Centre II,Health Centre II,-0.6034,31.4393
Uganda,Padibe West Health Centre III,Health Centre III,3.4524,32.7835
Uganda,Ntayigirwa Health Centre II,Health Centre II,1.0372,33.3338
Uganda,Kalagala Health Centre IV,Health Centre IV,0.6148,32.6105
Uganda,Ngamba Health Centre II,Health Centre II,0.7653,30.1102
Uganda,Apire Health Centre III,Health Centre III,2.0024,32.683
Burundi,Rukago Centre de Santé,Health Centre,-2.9869,29.7275
Uganda,Bulo Health Centre II,Health Centre II,0.095,31.988
Rwanda,Kibayi Health Centre,Health Centre,-2.732,29.8593
Uganda,Damba Health Centre II,Health Centre II,0.0167,32.8
Burundi,Mukenke Hôpital de District,Hôpital de District,-2.5845,30.3327
Uganda,Budadiri Health Centre II,Health Centre II,1.178,34.323
Burundi,Gatete Centre de Santé,Health Centre,-4.0408,29.4843
Uganda,Bwikara Health Centre III,Health Centre III,0.979,30.681
Uganda,Aswa Ranch Health Centre II,Health Centre II,2.9667,32.6
Uganda,Bubungi Health Centre II,Health Centre II,0.3,32.9
Uganda,Alango Health Centre II,Health Centre II,2.469,33.1914
Burundi,Kigamba Centre de Santé,Health Centre,-3.0747,30.5301
Uganda,Olok Health Centre II,Health Centre II,1.183,33.6442
Uganda,Kyakatara Health Centre III,Health Centre III,0.646,30.431
Uganda,Katikamu Kisuule (The Good Samaritan) Health Centre II,Health Centre II,0.7392,32.5223
Rwanda,Musebeya Health Centre,Health Centre,-2.425,29.4462
Uganda,Buyende Bugaya Health Centre III,Health Centre III,1.165,33.165
Uganda,Katabok Health Centre II,Health Centre II,1.7667,34.85
Burundi,Muyinga Centre de Santé,Health Centre,-2.8419,30.3447
Uganda,Abei Health Centre II,Health Centre II,1.8144,32.5549
Uganda,Ebenezer Health Centre II,Health Centre II,0.2389,32.9149
Uganda,Jinja All Saints Kagoma Health Centre III,Health Centre III,0.5944,33.1975
Burundi,Nzove Centre de Santé,Health Centre,-3.0992,29.8451
Uganda,Lazebu Health Centre II,Health Centre II,2.7291,30.9286
Uganda,Nakiloro Health Centre II,Health Centre II,2.6177,34.7334
Uganda,Kaserem Health Centre III,Health Centre III,1.3284,34.3364
Uganda,Ishongororo Health Centre IV,Health Centre IV,-0.0547,30.5023
Uganda,Nkoko Health Centre II,Health Centre II,0.25,30.1333
Uganda,Jinja Islamic Health Centre III,Health Centre III,0.4244,33.2184
Uganda,Namungodi Health Centre II,Health Centre II,0.4852,34.0258
Uganda,Nyakarongo Health Centre II,Health Centre II,0.603,30.5246
Uganda,Anamwany Health Centre II,Health Centre II,1.6947,32.7587
Uganda,Kyakatebe Health Centre II,Health Centre II,0.45,31.7833
Uganda,Busaba Health Centre III,Health Centre III,0.879,33.825
Uganda,St. Elizabeth Kibanga Ihu Health Centre III,Health Centre III,0.2279,32.2245
Rwanda,Nkungu Health Centre,Health Centre,-2.5425,29.0067
Uganda,Bukalasa Health Centre III,Health Centre III,0.7048,32.5121
Rwanda,Gahengeri Health Centre,Health Centre,-1.9707,30.3221
Uganda,Virika Hospital,Hospital,0.6332,30.2783
Uganda,Kambaala Health Centre II,Health Centre II,0.2518,31.9318
Uganda,Buhuka Health Centre II,Health Centre II,1.2406,30.7589
Uganda,Okwang Health Centre III,Health Centre III,2.54,33.191
Rwanda,Rufungo Health Centre,Health Centre,-2.0677,29.5377
Rwanda,Ruhunde Health Centre,Health Centre,-1.5733,29.9416
Uganda,Kigoyera Health Centre II,Health Centre II,0.852,30.534
Burundi,Bukirasazi Centre de Santé,Health Centre,-3.7014,29.9652
Uganda,Nsango Health Centre II,Health Centre II,0.6501,33.8715
Uganda,Ofua Health Centre III,Health Centre III,3.2557,31.7859
Uganda,Rapha Health Centre III,Health Centre III,1.3133,32.5929
Uganda,Rwengiri Health Centre III,Health Centre III,-0.882,29.983
Uganda,Nyabuswa Health Centre II,Health Centre II,0.629,30.1588
Uganda,Ukusijoni Health Centre III,Health Centre III,3.2816,31.6838
Uganda,Kamuganguzi Health Centre III,Health Centre III,-1.402,29.995
Uganda,Kalegero Health Centre II,Health Centre II,-0.371,31.2548
Burundi,Murago Centre de Santé,Health Centre,-3.2568,30.6938
Uganda,Ikonia Health Centre III,Health Centre III,0.6894,33.2599
Uganda,Iruhura COU Health Centre III,Health Centre III,0.4606,30.3059
Uganda,Bugembe Health Centre IV,Health Centre IV,0.464,33.237
Uganda,Binyiny Health Centre III,Health Centre III,1.4198,34.5337
Uganda,Shanyonja Health Centre II,Health Centre II,0.3442,33.8763
Burundi,Universitiy Hospital of Kamenge (CHUK) Hôpital Tertiaire,Hôpital Tertiaire,-3.3555,29.3854
Uganda,Buwenda Health Centre II,Health Centre II,0.477,33.173
Burundi,Murore Centre de Santé,Health Centre,-2.5544,30.2409
Uganda,Mpungwe Health Centre II,Health Centre II,0.645,33.205
Burundi,Gahabura Centre de Santé,Health Centre,-2.8925,29.2871
Rwanda,Karumbi Health Centre,Health Centre,-1.8649,29.4512
Uganda,Nyumanzi Health Centre II,Health Centre II,3.4536,31.9459
Uganda,Nyarubungo Health Centre III,Health Centre III,-0.672,30.735
Uganda,Butare NGO Health Centre II,Health Centre II,-0.3264,30.4011
Uganda,Kibuzigye Health Centre II,Health Centre II,-0.617,29.982
Uganda,Saruti Health Centre II,Health Centre II,0.1768,30.0847
Burundi,Miremera Centre de Santé,Health Centre,-2.932,29.4246
Uganda,Kangalaba Health Centre III,Health Centre III,0.9153,34.0829
Uganda,Oberabic Health Centre II,Health Centre II,2.9177,31.9657
Rwanda,Rususa Health Centre,Health Centre,-1.8409,29.6309
Uganda,Lacor-Amuru Health Centre III,Health Centre III,2.7771,32.2215
Rwanda,Rukura Health Centre,Health Centre,-1.696,29.8292
Uganda,Oweko Health Centre II,Health Centre II,2.415,31.11
Uganda,Angaya Health Centre III,Health Centre III,2.8534,32.3983
Uganda,Moli Health Centre II,Health Centre II,3.3709,31.2295
Uganda,Kibale Health Centre III,Health Centre III,1.208,33.77
Uganda,Logiri Health Centre III,Health Centre III,2.7353,30.8529
Uganda,St.Jancinta Health Centre II,Health Centre II,-0.9986,29.9477
Burundi,Bigera Centre de Santé,Health Centre,-2.9343,29.9508
Uganda,Mpaija Health Centre II,Health Centre II,1.3943,31.3316
Uganda,Buikwe Health Centre III,Health Centre III,0.2827,33.0339
Uganda,Ogoko Health Centre II,Health Centre II,2.9173,31.3335
Uganda,Seeta Kasawo Health Centre II,Health Centre II,0.6775,32.8272
Rwanda,Kamonyi (ruharambuga) Health Centre,Health Centre,-2.4465,29.0207
Uganda,Nyangonge Health Centre II,Health Centre II,0.2573,30.0766
Uganda,Katwe Health Centre III,Health Centre III,0.788,32.031
Rwanda,Rutobwe Health Centre,Health Centre,-1.9744,29.8001
Uganda,Namunkesu Health Centre II,Health Centre II,0.6552,33.4792
Uganda,Nakayonza Health Centre III,Health Centre III,1.4833,32.4
Uganda,Rwemigyina Health Centre II,Health Centre II,-0.589,30.73
Uganda,Lwamaggwa NGO Health Centre II,Health Centre II,-0.557,31.291
Uganda,Nawampiti Health Centre II,Health Centre II,1.2,33.4333
Uganda,Gapfurizo Health Centre II,Health Centre II,-1.2733,29.6302
Uganda,Etam Health Centre III,Health Centre III,1.6626,32.7023
Uganda,Bubare Health Centre III,Health Centre III,-1.2172,29.945
Uganda,Kijomoro Health Centre III,Health Centre III,3.1702,30.9115
Rwanda,Mukura (Huye) Health Centre,Health Centre,-2.6461,29.7494
Uganda,Rengen Health Centre III,Health Centre III,3.049,33.889
Uganda,Kabizi- Bugoba Health Centre II,Health Centre II,0.3583,33.1531
Uganda,Kikarara Health Centre II,Health Centre II,-0.4858,29.7972
Uganda,Joy Domiciliary Makindye Health Centre II,Health Centre II,0.2825,32.5827
Uganda,Ibanda Bugarama Health Centre II,Health Centre II,-0.0372,30.5118
Uganda,Guru Guru Health Centre II,Health Centre II,2.8835,32.0415
Uganda,Bulucheke Health Centre III,Health Centre III,1.0333,34.3833
Burundi,Kigomero Centre de Santé,Health Centre,-2.9237,30.013
Rwanda,Birambo Health Centre,Health Centre,-2.1447,29.5221
Uganda,Kasambya Health Centre III,Health Centre III,0.927,31.251
Uganda,Kanyaryeru (Lake Mburo) Health Centre II,Health Centre II,-0.527,30.8209
Rwanda,Kabuye Health Centre,Health Centre,-1.8898,30.0635
Uganda,Mpondwe Moslem Health Centre II,Health Centre II,0.0321,29.7528
Uganda,Buwagiyu Health Centre II,Health Centre II,0.9897,34.364
Uganda,Ntawawula Health Centre II,Health Centre II,0.465,33.8008
Uganda,Burambira Health Centre II,Health Centre II,-1.2911,30.0916
Rwanda,Gacuba Ii Health Centre,Health Centre,-1.6794,29.2642
Rwanda,Gituza Health Centre,Health Centre,-1.6192,30.2919
Uganda,Muni NTC Health Centre II,Health Centre II,2.9901,30.9374
Uganda,Rhino Camp Health Centre IV,Health Centre IV,2.9761,31.3975
Uganda,Pakwach Health Centre IV,Health Centre IV,2.4788,31.474
Burundi,Kabanga Centre de Santé,Health Centre,-3.6287,30.407
Uganda,Rwoburunga Health Centre III,Health Centre III,-0.7192,29.6515
Uganda,Nankandulo Health Centre IV,Health Centre IV,0.6959,33.0726
Uganda,Katembe Health Centre II,Health Centre II,-0.752,30.827
Uganda,Bumunji Health Centre II,Health Centre II,0.384,34.081
Uganda,St. Matia Mulumba Health Centre III,Health Centre III,0.4554,31.6661
Uganda,Mukwano Health Centre II,Health Centre II,0.324,32.564
Uganda,Rwakakwenda Health Centre II,Health Centre II,-0.9597,30.5866
Uganda,Kikyo Health Centre IV,Health Centre IV,0.739,30.139
Uganda,Lotome Health Centre III,Health Centre III,2.3622,34.5339
Burundi,Buraniro Centre de Santé,Health Centre,-3.0988,29.6648
Burundi,Ntega Centre de Santé,Health Centre,-2.6158,30.0015
Uganda,Bukoteka Health Centre II,Health Centre II,0.6098,33.5771
Uganda,Kumi Health Centre IV,Health Centre IV,1.527,33.988
Uganda,Lwabyata Health Centre II,Health Centre II,1.5167,32.3667
Uganda,Kanapa Ongino Health Centre II,Health Centre II,1.5091,34.0313
Uganda,Pusere Health Centre II,Health Centre II,0.8334,34.0135
Uganda,Bulaago Health Centre II,Health Centre II,1.2476,34.3608
Rwanda,Remera Health Centre,Health Centre,-2.081,30.556
Burundi,Nyantakara Centre de Santé,Health Centre,-4.1828,30.0132
Uganda,Nazigo Health Centre III,Health Centre III,0.6687,32.9906
Rwanda,Kigogo Health Centre,Health Centre,-1.5933,30.0097
Rwanda,Rubona (huye) Health Centre,Health Centre,-2.477,29.7682
Uganda,Mulanda Health Centre IV,Health Centre IV,0.678,34.01
Uganda,Aliwang Health Centre III,Health Centre III,2.2677,32.9074
Uganda,Nsamu/Kyali Health Centre III,Health Centre III,0.166,32.331
Uganda,Bugoye Health Centre III,Health Centre III,0.3194,30.0274
Uganda,Kiziba Health Centre II,Health Centre II,-1.2833,30.1
Uganda,Mawundo Health Centre III,Health Centre III,0.64,33.359
Uganda,Bunaseke Health Centre III,Health Centre III,1.1751,34.3842
Uganda,Karungu Health Centre III,Health Centre III,-0.349,30.487
Uganda,Nakasozi Health Centre II,Health Centre II,0.711,31.899
Uganda,Nshwere Health Centre II,Health Centre II,-0.1595,30.9495
Uganda,Kimengo Health Centre III,Health Centre III,1.554,31.974
Uganda,Kapedo Health Centre III,Health Centre III,3.6901,33.9434
Burundi,Ruzo Centre de Santé,Health Centre,-2.3969,30.4394
Burundi,Kivoga Centre de Santé,Health Centre,-4.316,29.8693
Uganda,Ebenezer SDA Health Centre III,Health Centre III,0.7116,30.0617
Uganda,Corom Health Centre II,Health Centre II,2.5927,31.9538
Uganda,Kungu Health Centre II,Health Centre II,1.7108,32.1301
Rwanda,Nyanza District Hospital,District Hospital,-2.3526,29.7493
Uganda,Christ The King Health Centre II,Health Centre II,0.1465,33.0447
Uganda,Ogago Health Centre II,Health Centre II,2.9698,33.0807
Uganda,Aroi Health Centre III,Health Centre III,3.1136,30.8971
Uganda,Al-Shafa Medical Centre Hospital,Hospital,0.4587,33.2175
Rwanda,Nyabitimbo Health Centre,Health Centre,-2.5601,29.0699
Burundi,Mbogora Centre de Santé,Health Centre,-3.4584,29.7755
Uganda,Mocha Health Centre II,Health Centre II,3.5333,31.25
Uganda,Malera Health Centre III,Health Centre III,1.453,34.085
Burundi,Mivo Hôpital de District,Hôpital de District,-2.9485,29.7866
Burundi,Rugongo Centre de Santé,Health Centre,-2.9979,30.3218
Uganda,Kataraza Health Centre III,Health Centre III,0.8022,30.834
Uganda,Okoboi Health Centre II,Health Centre II,2.3167,33.85
Uganda,True Vine Health Centre III,Health Centre III,0.6651,34.1474
Uganda,Kitebi Health Centre III,Health Centre III,0.2769,32.5492
Uganda,Kinuuka Health Centre III,Health Centre III,-0.265,31.115
Uganda,Nyaburiza Health Centre III,Health Centre III,-0.929,30.275
Uganda,Nyantonzi Health Centre III,Health Centre III,1.637,31.481
Uganda,Nabikooli Health Centre II,Health Centre II,0.944,33.432
Burundi,Gitanga Centre de Santé,Health Centre,-3.0747,30.5301
Uganda,Angole Health Centre II,Health Centre II,2.6678,32.8492
Uganda,Nsawo Health Centre III,Health Centre III,0.6655,32.5401
Uganda,Amuria COU Health Centre II,Health Centre II,2.6714,33.4494
Uganda,Muruba Health Centre II,Health Centre II,1.0106,34.2334
Rwanda,Mbuye Health Centre,Health Centre,-2.1312,29.8479
Uganda,Nakaseke Hospital,Hospital,0.796,32.436
Uganda,Wakyato Health Centre III,Health Centre III,0.875,32.209
Uganda,Kachuru Health Centre II,Health Centre II,1.1642,34.1102
Rwanda,Kibuye Health Centre,Health Centre,-2.068,29.3453
Uganda,Kikamba Health Centre II,Health Centre II,-0.3834,30.3138
Uganda,Kawolo Hospital,Hospital,0.35,32.9333
Burundi,Nyagasaka Centre de Santé,Health Centre,-3.9677,29.5332
Uganda,Buyanga Health Centre II,Health Centre II,0.6475,33.6125
Uganda,Uderu Health Centre II,Health Centre II,3.4116,31.8038
Rwanda,Gakenke Health Centre,Health Centre,-1.8016,30.4164
Uganda,Rode Health Centre II,Health Centre II,0.5042,32.0879
Uganda,Kakanju Health Centre III,Health Centre III,-0.485,30.201
Uganda,Ruhija Health Centre II,Health Centre II,-1.1171,29.7934
Uganda,Nakaziba Health Centre II,Health Centre II,0.359,32.112
Burundi,Kajabure Centre de Santé,Health Centre,-3.9843,29.5619
Uganda,Kabere Health Centre II,Health Centre II,-1.2169,29.8911
Rwanda,Nyagahita Health Centre,Health Centre,-1.486,30.2028
Uganda,Naigobya Lutheran Health Centre II,Health Centre II,0.82,33.3561
Uganda,Kilokola Health Centre II,Health Centre II,0.2331,32.1917
Burundi,Mirwa Centre de Santé,Health Centre,-2.6808,30.2507
Uganda,Nakichumet Health Centre II,Health Centre II,2.2571,34.2206
Burundi,Mukenke Centre de Santé,Health Centre,-2.5841,30.3327
Uganda,Ryeishe Health Centre III,Health Centre III,-0.6036,30.1409
Uganda,Ndaiga Health Centre II,Health Centre II,1.017,30.583
Uganda,Ruhangire Health Centre II,Health Centre II,0.361,31.0787
Burundi,Ruyange Centre de Santé,Health Centre,-3.2418,29.405
Uganda,Omiito Health Centre II,Health Centre II,1.649,33.832
Uganda,Potika Health Centre II,Health Centre II,3.7218,32.8802
Uganda,Nyaruhanga Health Centre II,Health Centre II,-0.9656,30.6703
Uganda,Bufumira Islanders Friends Of Family Health Centre II,Health Centre II,-0.3397,32.4242
Uganda,COU Health Centre III,Health Centre III,2.9994,34.1031
Uganda,Kyeshero Health Centre II,Health Centre II,-0.917,29.598
Uganda,Amilobo Health Centre II,Health Centre II,3.0258,32.763
Uganda,Mahyoro Health Centre III,Health Centre III,-0.0575,30.2596
Uganda,Bubothyo Health Centre II,Health Centre II,0.0706,29.7589
Burundi,Kigoganya Centre de Santé,Health Centre,-2.853,30.2822
Uganda,Kibuye Health Centre II,Health Centre II,1.1865,32.9789
Burundi,Buganda Adventiste Centre de Santé,Health Centre,-2.9443,29.2003
Rwanda,Rwahi Health Centre,Health Centre,-1.8602,29.9224
Uganda,Anyiribu Health Centre III,Health Centre III,2.5627,31.1136
Uganda,St. Luke Kiyinda Mityana Diocese Health Centre III,Health Centre III,0.3948,32.0549
Uganda,Anyavu Health Centre II,Health Centre II,2.6775,30.8605
Uganda,Nyamuyanja Health Centre IV,Health Centre IV,-0.787,30.68
Uganda,River Oli Health Centre IV,Health Centre IV,3.0354,30.906
Uganda,Friends Medical Centre Health Centre II,Health Centre II,0.3024,32.6165
Uganda,Bujjuko Health Centre III,Health Centre III,0.3356,32.3594
Uganda,Mpeefu B Health Centre III,Health Centre III,0.494,30.304
Uganda,St. Lawrence Otumbari Health Centre III,Health Centre III,3.1001,31.0844
Burundi,Dunga Centre de Santé,Health Centre,-4.1764,29.9303
Burundi,Buye Hôpital de District,Hôpital de District,-2.8623,29.8192
Uganda,Kigasa Health Centre II,Health Centre II,-0.0667,31.7833
Uganda,Nshungyezi Health Centre III,Health Centre III,-0.966,30.749
Uganda,Pakele Health Centre III,Health Centre III,3.3569,31.8551
Uganda,Gasovu Health Centre II,Health Centre II,-1.3079,29.6995
Uganda,Murem Health Centre II,Health Centre II,1.6337,33.1187
Uganda,UMSC Mityana Health Centre III,Health Centre III,0.3964,32.0482
Uganda,Kyakasa Health Centre II,Health Centre II,0.5573,31.3937
Burundi,Bamba Centre de Santé,Health Centre,-3.9406,29.762
Uganda,Kuywee Health Centre II,Health Centre II,3.0573,33.3025
Rwanda,Rutake Health Centre,Health Centre,-1.673,29.7234
Uganda,Ssanje Dom Health Centre III,Health Centre III,-0.7946,31.5111
Uganda,Lwembajjo Health Centre II,Health Centre II,-0.7759,31.209
Uganda,Bumasobo Health Centre III,Health Centre III,1.2108,34.3977
Uganda,Amucu Health Centre III,Health Centre III,2.0511,33.6741
Burundi,Nyungu Centre de Santé,Health Centre,-2.8122,30.2483
Rwanda,Mushubi Health Centre,Health Centre,-2.348,29.4448
Uganda,Ngeribalya Health Centre II,Health Centre II,0.1502,32.0179
Uganda,Kalamba Community Health Centre II,Health Centre II,0.267,32.198
Uganda,Nacoda Health Centre III,Health Centre III,1.101,33.858
Uganda,Health Initiative For Africa Health Centre III,Health Centre III,0.3451,33.0287
Uganda,Bukungu Health Centre II,Health Centre II,1.431,33.8955
Burundi,Kaburantwa Centre de Santé,Health Centre,-2.9972,29.2205
Uganda,Gwanda Health Centre II,Health Centre II,-0.9122,31.6355
Uganda,Bugusege Health Centre II,Health Centre II,1.1476,34.2595
Rwanda,Mukoma (nyamasheke) Health Centre,Health Centre,-2.3632,29.0115
Uganda,Majanji Health Centre II,Health Centre II,0.2633,33.9893
Rwanda,Nyange A Health Centre,Health Centre,-1.8359,29.6463
Uganda,Aduku Mission Health Centre II,Health Centre II,1.9929,32.7119
Uganda,Nakitembe Health Centre II,Health Centre II,1.0208,31.6386
Uganda,Katooke Health Centre III,Health Centre III,0.756,30.727
Rwanda,Mont Cyangugu Health Centre,Health Centre,-2.4708,28.9131
Uganda,Buremba Health Centre III,Health Centre III,0.111,30.711
Uganda,Amyel Health Centre II,Health Centre II,2.9412,33.4703
Uganda,Busagula Health Centre II,Health Centre II,-0.0299,31.6701
Uganda,Aliakamer Health Centre II,Health Centre II,1.9465,33.9329
Rwanda,Kayove Health Centre,Health Centre,-1.8872,29.3437
Uganda,Kyebando Health Centre III,Health Centre III,0.938,31.073
Uganda,Bileafe Health Centre III,Health Centre III,3.1062,31.0847
Uganda,Kibundaire Health Centre II,Health Centre II,0.613,33.136
Uganda,Rubaya Health Centre IV,Health Centre IV,-1.4167,29.95
Burundi,Mugara Centre de Santé,Health Centre,-4.0566,29.4999
Uganda,Rushere Community Hospital,Hospital,-0.2367,30.9611
Uganda,Abia Health Centre II,Health Centre II,2.4414,33.1168
Burundi,Kabanga Centre de Santé,Health Centre,-2.5107,30.3101
Uganda,Kanyanda Health Centre II,Health Centre II,0.5929,32.3831
Uganda,Kikube Health Centre II,Health Centre II,0.8824,32.4219
Uganda,Bumumulo Health Centre III,Health Centre III,1.133,34.375
Uganda,Barjobi Health Centre III,Health Centre III,2.596,33.1142
Uganda,Mirembe- Kawempe Health Centre II,Health Centre II,0.3514,32.5874
Burundi,Muyange Centre de Santé,Health Centre,-3.8223,29.4772
Uganda,Kalungi Health Centre III,Health Centre III,1.302,32.621
Rwanda,Giti Health Centre,Health Centre,-1.788,30.2223
Burundi,Sehe Centre de Santé,Health Centre,-2.9147,29.4587
Burundi,Nyarusebeyi Centre de Santé,Health Centre,-2.7575,29.2263
Uganda,Kakooge Health Centre II,Health Centre II,1.2764,33.2029
Burundi,Nyamakarabo Centre de Santé,Health Centre,-2.657,29.0886
Uganda,Nyakahita Health Centre II,Health Centre II,-0.4429,31.0789
Uganda,Bison Health Centre III,Health Centre III,0.7016,34.1785
Uganda,Nabutiti Health Centre III,Health Centre III,0.4974,32.5899
Rwanda,Gatseta Health Post,Health Post ,-2.0757,30.5529
Uganda,Bugobango Health Centre II,Health Centre II,0.1009,31.9074
Burundi,Mukerwa Centre de Santé,Health Centre,-2.6024,30.2188
Uganda,Mazuba Health Centre II,Health Centre II,0.9257,33.728
Uganda,Pokwero Health Centre III,Health Centre III,2.558,31.418
Rwanda,Kibilizi (nyanza) Health Centre,Health Centre,-2.3857,29.8948
Uganda,Kisugu Health Centre III,Health Centre III,0.3036,32.6041
Uganda,Kaladima Health Centre III,Health Centre III,2.8254,32.1385
Rwanda,Biruyi Health Centre,Health Centre,-1.851,29.3164
Uganda,Njeru T.C Health Centre III,Health Centre III,0.44,33.1707
Uganda,Wandago Health Centre II,Health Centre II,1.0047,33.2862
Uganda,Muhokya Health Centre III,Health Centre III,0.124,30.111
Uganda,Bwiwula Health Centre II,Health Centre II,0.4373,33.4544
Uganda,Agule Community Health Centre III,Health Centre III,1.31,33.728
Uganda,Nyariegi Health Centre II,Health Centre II,2.3276,31.1054
Uganda,Loinya Health Centre II,Health Centre II,3.2922,30.98
Uganda,Magoggo Health Centre II,Health Centre II,0.421,32.317
Uganda,Kisozi Health Centre II,Health Centre II,0.7412,33.0828
Uganda,Kigaaga Health Centre II,Health Centre II,-1.083,30.282
Uganda,Kiryanga Health Centre III,Health Centre III,1.113,31.057
Uganda,Muwunami Health Centre II,Health Centre II,1.468,32.516
Uganda,Namutumba Health Centre III,Health Centre III,0.8277,33.6883
Rwanda,Burega Health Centre,Health Centre,-1.7248,30.0347
Uganda,Kigezi Health Centre II,Health Centre II,1.7006,31.8006
Uganda,Mukono Health Centre IV,Health Centre IV,0.383,32.767
Uganda,Alyecmeda Health Centre II,Health Centre II,1.6029,32.7295
Burundi,Marembo Centre de Santé,Health Centre,-2.4464,30.1779
Uganda,Kakombo Health Centre II,Health Centre II,0.5521,33.5207
Uganda,Kasaali Health Centre III,Health Centre III,-0.616,31.562
Uganda,Kahenda Health Centre II,Health Centre II,-0.732,30.648
Uganda,Rakai Hospital,Hospital,-0.707,31.394
Uganda,Bwera Health Centre II,Health Centre II,-0.558,30.237
Uganda,Bupomboli Health Centre II,Health Centre II,0.677,30.0673
Uganda,Bufunjo Health Centre III,Health Centre III,0.751,30.836
Uganda,Kasomoro Health Centre II,Health Centre II,1.4592,31.4055
Burundi,Mutambu Centre de Santé,Health Centre,-3.5287,29.4291
Uganda,North Kigezi Health Centre IV,Health Centre IV,-0.5,29.8333
Uganda,Apetai Health Centre II,Health Centre II,0.7834,34.2103
Burundi,Misercorde Centre de Santé,Health Centre,-3.4157,29.3705
Uganda,Mugalike Health Centre II,Health Centre II,1.0135,30.8634
Uganda,Bukedea Mission Health Centre II,Health Centre II,1.348,34.0464
Burundi,Gisimbawaga Centre de Santé,Health Centre,-3.1704,30.2162
Uganda,Muwanga Health Centre III,Health Centre III,0.695,31.962
Rwanda,Muhoza (Ruhengeri) Health Centre,Health Centre,-1.5,29.6366
Rwanda,Kirwa Health Centre,Health Centre,-2.0777,30.4672
Uganda,Wagala Health Centre II,Health Centre II,0.4234,32.9041
Uganda,Zirobwe Health Centre III,Health Centre III,0.6822,32.7006
Uganda,Lujoropnfple Health Centre II,Health Centre II,2.6611,32.3273
Burundi,Rutongo Centre de Santé,Health Centre,-3.6378,29.4562
Rwanda,Ruli District Hospital,District Hospital,-1.8296,29.8494
Rwanda,Kivu Health Centre,Health Centre,-2.6159,29.4598
Uganda,Lolachat Health Centre III,Health Centre III,2.018,34.68
Uganda,Ruhoko Health Centre IV,Health Centre IV,-0.155,30.478
Uganda,Akino Health Centre II,Health Centre II,2.7341,31.1871
Uganda,Kisansala Health Centre II,Health Centre II,-0.329,31.63
Uganda,Nawantumbi Health Centre II,Health Centre II,0.7667,33.1333
Uganda,Bukibokolo Health Centre III,Health Centre III,0.9903,34.2918
Uganda,Kolonyi Health Centre IV,Health Centre IV,1.1395,34.1489
Uganda,Butagaya Health Centre III,Health Centre III,0.597,33.127
Burundi,Muhafu Centre de Santé,Health Centre,-3.94,30.1744
Uganda,Jupangira Health Centre II,Health Centre II,2.4153,31.0397
Uganda,Tuliki Health Centre II,Health Centre II,3.5272,31.1967
Uganda,Atangwata Health Centre III,Health Centre III,2.5241,33.4109
Rwanda,Gashora Health Centre,Health Centre,-2.2055,30.245
Uganda,Njeru Health Centre II,Health Centre II,1.6,32.1833
Uganda,Kyazanga Health Centre IV,Health Centre IV,-0.384,31.319
Rwanda,Nyamata District Hospital,District Hospital,-2.1384,30.0799
Uganda,St. Thereza Kajaho Clinic,Clinic,-0.9454,30.7491
Uganda,Busoru Health Centre II,Health Centre II,0.719,29.991
Uganda,Kitholhu Health Centre III,Health Centre III,0.098,29.747
Uganda,Kahangi Health Centre II,Health Centre II,0.3667,30.5167
Uganda,Odek Health Centre III,Health Centre III,2.749,32.694
Uganda,Mabanga Health Centre II,Health Centre II,-0.798,30.0407
Burundi,Kavumwe Centre de Santé,Health Centre,-3.4442,30.5894
Uganda,Rwetango Health Centre II,Health Centre II,-0.65,30.823
Uganda,Kaboloi Health Centre III,Health Centre III,1.216,33.719
Uganda,Kyobugombe Health Centre II,Health Centre II,-0.9667,30.1333
Uganda,Rweibare Health Centre II,Health Centre II,-0.5796,30.4002
Uganda,Nkuruba Health Centre III,Health Centre III,0.5178,30.3012
Burundi,Nyembuye Centre de Santé,Health Centre,-3.9542,30.0873
Uganda,Kirembe Health Centre II,Health Centre II,0.1421,30.0456
Burundi,Rugari Centre de Santé,Health Centre,-3.2706,29.761
Uganda,Pader Health Centre III,Health Centre III,2.9116,33.0263
Uganda,Myanzi Health Centre III,Health Centre III,0.391,31.902
Rwanda,Kagitumba Health Centre,Health Centre,-1.0768,30.4494
Burundi,Maramvya Centre de Santé,Health Centre,-3.5513,29.9767
Uganda,Kasulenge Health Centre II,Health Centre II,0.631,30.074
Uganda,Mubende Gayaza Health Centre II,Health Centre II,0.5056,31.4029
Uganda,Bukibologoto Health Centre II,Health Centre II,1.2623,34.3226
Uganda,Atar Health Centre III,Health Centre III,1.41,34.4828
Rwanda,Mulindi (gicumbi) Health Centre,Health Centre,-1.478,30.0428
Uganda,Kicwamba Health Centre III,Health Centre III,0.716,30.199
Uganda,Nawandyo Health Centre II,Health Centre II,0.759,33.183
Uganda,Geregere Health Centre II,Health Centre II,2.7729,33.2338
Uganda,Buninga Health Centre II,Health Centre II,0.8609,31.9008
Uganda,Kirima Health Centre III,Health Centre III,-0.9425,29.7869
Burundi,Kanka Centre de Santé,Health Centre,-3.5993,29.754
Uganda,Bukonte Health Centre II,Health Centre II,0.7914,33.6579
Uganda,Karinga Health Centre II,Health Centre II,0.8833,30.2
Uganda,Ddungi Health Centre II,Health Centre II,0.3139,32.6004
Uganda,Paidha Health Centre III,Health Centre III,2.4167,30.9833
Uganda,Rwamujojo Health Centre II,Health Centre II,-0.591,30.3254
Uganda,Biwolobo Health Centre II,Health Centre II,-0.45,31.1833
Burundi,Nyagatovu Centre de Santé,Health Centre,-2.7499,30.1771
Uganda,Mengo Hospital,Hospital,0.3163,32.5609
Uganda,Karusandara Health Centre III,Health Centre III,0.216,30.238
Uganda,Busolwe Hospital,Hospital,0.8527,33.9283
Uganda,Katatenga Health Centre II,Health Centre II,-0.6532,31.3875
Burundi,Mageyo Centre de Santé,Health Centre,-3.3268,29.5081
Uganda,Kyakabadiima Health Centre II,Health Centre II,1.0295,30.8565
Uganda,Kasasira Health Centre III,Health Centre III,1.0939,33.7056
Rwanda,Shyira District Hospital,District Hospital,-1.682,29.6291
Uganda,Lochom Health Centre II,Health Centre II,3.4232,34.1435
Uganda,Benet Health Centre III,Health Centre III,1.392,34.5682
Uganda,Wadra Health Centre III,Health Centre III,3.2602,31.0078
Uganda,Bulawula Health Centre II,Health Centre II,0.8409,32.9581
Uganda,Lwensinga Health Centre II,Health Centre II,-0.886,31.247
Uganda,Bungokho-Mutoto Health Centre III,Health Centre III,1.0453,34.2159
Uganda,Minziiro Health Centre II,Health Centre II,-0.9949,31.5625
Uganda,Hukeseho Health Centre III,Health Centre III,0.3046,33.8827
Uganda,Kokorio Health Centre II,Health Centre II,1.7136,33.9337
Uganda,Kagongi Health Centre III,Health Centre III,-0.6,30.6
Uganda,Kicwamba Health Centre III,Health Centre III,0.716,30.199
Uganda,Bubago Health Centre II,Health Centre II,0.7265,33.0919
Uganda,Busira Health Centre II,Health Centre II,0.3918,33.6763
Uganda,Omee 1 Health Centre II,Health Centre II,2.8556,31.7705
Uganda,Kasokwe Health Centre II,Health Centre II,0.6405,33.8149
Uganda,Butende Health Centre III,Health Centre III,-0.286,31.7238
Uganda,Kagorogoro SDA Health Centre II,Health Centre II,0.68,30.47
Uganda,Waka Health Centre II,Health Centre II,3.4071,31.5077
Uganda,Alakas Health Centre II,Health Centre II,1.8594,34.9969
Burundi,Vumbi Centre de Santé,Health Centre,-2.6871,30.1026
Uganda,Buyoga Health Centre III,Health Centre III,-0.244,31.631
Uganda,Kisimba Muslim Health Centre II,Health Centre II,0.3184,33.0899
Uganda,Kashogashoga Health Centre II,Health Centre II,-0.1333,30.5
Rwanda,Busanza Health Centre,Health Centre,-1.9801,30.1496
Uganda,Kampiringisa Health Centre III,Health Centre III,0.184,32.249
Uganda,Kali Health Centre II,Health Centre II,3.4711,31.567
Uganda,Balawoli Health Centre III,Health Centre III,1.048,33.103
Uganda,Bugulu Health Centre II,Health Centre II,0.4105,33.6403
Uganda,Atutur Hospital,Hospital,1.422,33.99
Uganda,Asamuk Health Centre III,Health Centre III,1.9793,33.701
Rwanda,Nzangwa Health Centre,Health Centre,-2.3394,30.2652
Rwanda,Nyarusange (muhanga) Health Centre,Health Centre,-2.0921,29.6838
Uganda,Aketa Health Centre III,Health Centre III,2.1153,33.9507
Uganda,Lumino Health Centre III,Health Centre III,0.31,33.977
Rwanda,Busigari Health Centre,Health Centre,-1.639,29.2935
Rwanda,Cyahinda Health Centre,Health Centre,-2.7408,29.6091
Uganda,Sipi Health Centre III,Health Centre III,1.3371,34.3739
Rwanda,Bigugu Health Centre,Health Centre,-2.1886,29.3681
Burundi,Rumonge Hôpital de District,Hôpital de District,-3.9756,29.4402
Uganda,Buwunga Health Centre III,Health Centre III,-0.3728,31.7931
Uganda,Bugongi Health Centre II,Health Centre II,-0.7647,29.8095
Uganda,Ryengyerero Health Centre II,Health Centre II,-0.7222,30.0141
Uganda,Burombe Health Centre II,Health Centre II,-0.6791,29.9591
Uganda,Bunoga Health Centre III,Health Centre III,0.346,30.507
Uganda,Kigorobya Health Centre IV,Health Centre IV,1.6233,31.3119
Uganda,Good Sheperd Kisenyi Mengo Health Centre III,Health Centre III,0.3088,32.5698
Uganda,Mushasha Health Centre II,Health Centre II,-0.9703,30.3261
Uganda,Mirembe Health Centre III,Health Centre III,0.3065,32.5355
Burundi,Rutovu Centre de Santé,Health Centre,-3.8811,29.8447
Uganda,Lamezia Health Centre III,Health Centre III,0.104,30.908
Uganda,Akoboi Health Centre II,Health Centre II,1.8541,33.9491
Uganda,Ikamiro Health Centre II,Health Centre II,-1.245,29.832
Uganda,Patiko Health Centre III,Health Centre III,3.0167,32.3239
Uganda,Karorwa Health Centre II,Health Centre II,-1.2199,30.1502
Uganda,Kakure Health Centre III,Health Centre III,1.8478,33.3886
Uganda,Nyabushabi Health Centre II,Health Centre II,-1.216,30.014
Uganda,Minakulu Health Centre II,Health Centre II,2.529,32.321
Uganda,Alapata Health Centre II,Health Centre II,2.0888,33.1721
Uganda,Kitumba Health Centre II,Health Centre II,0.4159,33.7587
Uganda,Aroma Health Centre III,Health Centre III,0.5282,33.2214
Uganda,St. Kizito Kiyunga Health Centre II,Health Centre II,0.7771,33.0724
Uganda,Abela Health Centre II,Health Centre II,2.5988,32.7505
Uganda,Avogera Health Centre III,Health Centre III,2.197,31.484
Uganda,Kanginima Hospital,Hospital,1.202,33.977
Burundi,Kizuka Centre de Santé,Health Centre,-3.8856,29.4029
Uganda,Ttanda Health Centre II,Health Centre II,0.385,32.132
Uganda,Tegeres Health Centre III,Health Centre III,1.406,34.385
Uganda,Saidina Abubakar Islamic Hospital,Hospital,0.4175,32.5371
Burundi,Jimbi Centre de Santé,Health Centre,-4.2735,29.8513
Uganda,Nsale Health Centre II,Health Centre II,0.5876,33.6331
Rwanda,Busasamana Health Centre,Health Centre,-1.604,29.3449
Uganda,Kisomoro Health Centre III,Health Centre III,0.535,30.139
Uganda,Walukunyu Health Centre II,Health Centre II,1.39,32.345
Uganda,Irundu Health Centre III,Health Centre III,1.2343,33.3678
Uganda,Aakum Health Centre II,Health Centre II,1.4667,33.9
Uganda,Kyetume CBHC Health Centre II,Health Centre II,0.3124,32.7713
Uganda,Katwe (Kasese) Health Centre III,Health Centre III,-0.072,29.89
Uganda,Unyama Health Centre II,Health Centre II,2.8,32.3477
Rwanda,Karengera Health Centre,Health Centre,-2.2608,29.2219
Uganda,Lugazi Ii Health Centre II,Health Centre II,0.3772,32.9197
Uganda,Rwimi Health Centre III,Health Centre III,0.3858,30.1988
Uganda,Ntungamo Health Centre IV,Health Centre IV,-0.867,30.264
Uganda,Otwee Health Centre III,Health Centre III,2.8186,31.8678
Rwanda,Giheke Health Centre,Health Centre,-2.4744,28.9711
Uganda,Bweema Health Centre II,Health Centre II,0.2774,33.2295
Uganda,Mbarara Regional Referral Hospital,Regional Referral Hospital,-0.6077,30.67
Uganda,Lanenober Health Centre III,Health Centre III,2.6317,32.4196
Uganda,Lulyango Health Centre II,Health Centre II,2.6401,31.8893
Burundi,Murore Centre de Santé,Health Centre,-3.188,30.6643
Uganda,Sironko Health Centre III,Health Centre III,1.16,34.229
Uganda,Gamatui Health Centre II,Health Centre II,1.3313,34.3826
Uganda,Barakala Health Centre III,Health Centre III,3.475,31.365
Uganda,Ibugwe Health Centre II,Health Centre II,-1.1839,30.0769
Burundi,Bunyuka Centre de Santé,Health Centre,-3.7489,29.9519
Uganda,Gogonyo Health Centre III,Health Centre III,1.263,33.502
Uganda,Pugwinyi Health Centre II,Health Centre II,2.9609,32.2067
Burundi,Gishiha Centre de Santé,Health Centre,-4.1076,29.7119
Uganda,Amunga Health Centre II,Health Centre II,2.5248,33.1663
Burundi,Rusenda Centre de Santé,Health Centre,-2.823,29.2636
Uganda,Tegot-Ato Health Centre II,Health Centre II,2.8199,32.4538
Rwanda,Gihundwe Health Centre,Health Centre,-2.4832,28.9148
Uganda,Amolatar Health Centre IV,Health Centre IV,1.6405,32.8431
Uganda,Kyalugondo Health Centre III,Health Centre III,0.7643,32.4777
Uganda,Alero Health Centre III,Health Centre III,2.729,32.062
Rwanda,Rango Health Centre,Health Centre,-2.6388,29.7458
Uganda,Kagulu Health Centre II,Health Centre II,1.2894,33.3051
Burundi,Nyarunazi Centre de Santé,Health Centre,-3.7853,29.9592
Uganda,Maduga Health Centre II,Health Centre II,3.2779,31.5516
Uganda,Country Side Health Centre II,Health Centre II,1.0322,33.0999
Uganda,Kahendero Health Centre II,Health Centre II,0.0667,30.05
Uganda,St. Luke Kisoyiro Health Centre II,Health Centre II,-0.9414,30.6179
Uganda,Mulama Health Centre II,Health Centre II,0.9033,33.631
Uganda,Naigobya Udha Health Centre III,Health Centre III,0.82,33.3561
Burundi,Butahana Centre de Santé,Health Centre,-2.7408,29.252
Uganda,Gasovu Health Centre III,Health Centre III,-1.3222,29.6955
Uganda,Nabulezi Health Centre II,Health Centre II,1.035,33.09
Rwanda,Gisagara Health Centre,Health Centre,-2.599,29.8379
Burundi,Mivo Centre de Santé,Health Centre,-2.941,29.7944
Uganda,Ngoma Health Centre III,Health Centre III,1.1608,32.0228
Uganda,Bubaare Health Centre III,Health Centre III,-0.565,30.522
Uganda,Mwello Health Centre II,Health Centre II,0.695,33.982
Uganda,Kicumbi Health Centre II,Health Centre II,-1.331,29.993
Burundi,Kiranda Centre de Santé,Health Centre,-3.0565,30.1213
Uganda,Lumuli Health Centre II,Health Centre II,0.633,33.067
Rwanda,Rutare (kayonza) Health Centre,Health Centre,-1.9254,30.5554
Burundi,Nyamure Centre de Santé,Health Centre,-3.7978,29.9705
Uganda,Iraramira Health Centre II,Health Centre II,-0.5401,29.9467
Uganda,Rurama Health Centre II,Health Centre II,0.5418,30.324
Uganda,Wairaka Health Centre II,Health Centre II,0.477,33.264
Uganda,Kakanju Health Centre II,Health Centre II,-0.283,30.45
Uganda,Omiya Pacwa Health Centre II,Health Centre II,3.1965,33.4422
Burundi,Gisozi Centre de Santé,Health Centre,-3.5704,29.679
Uganda,Makonzi Health Centre II,Health Centre II,-0.2113,31.956
Uganda,Amudat TC Health Centre II,Health Centre II,1.9534,34.9438
Rwanda,Nyantanga Health Centre,Health Centre,-2.728,29.653
Uganda,Rukarango Health Centre II,Health Centre II,-0.7854,30.1891
Burundi,Mutakura Centre de Santé,Health Centre,-3.3374,29.3688
Uganda,Biashara Health Centre II,Health Centre II,1.9746,32.5445
Uganda,Bethlehem Health Centre II,Health Centre II,-0.5824,31.4688
Uganda,Nawampiti Health Centre II,Health Centre II,0.705,33.308
Burundi,Nyabigina Centre de Santé,Health Centre,-4.3607,29.6666
Burundi,Kayogoro II Centre de Santé,Health Centre,-4.233,29.7659
Uganda,Ossi Health Centre II,Health Centre II,2.36,31.241
Uganda,Mutai Health Centre II,Health Centre II,0.566,33.212
Uganda,Nshunga Health Centre II,Health Centre II,0.1357,30.8223
Uganda,Namabaale Health Centre II,Health Centre II,0.5076,31.7628
Uganda,Angerepo Health Centre II,Health Centre II,2.0068,33.8577
Rwanda,Rambura Health Centre,Health Centre,-1.6795,29.5208
Uganda,Maziriga Health Centre II,Health Centre II,0.3296,33.7726
Burundi,Gihofi Hôpital de District,Hôpital de District,-4.0325,30.14
Uganda,Nabiganda Health Centre IV,Health Centre IV,0.9744,34.0587
Uganda,Kamuli Hospital,Hospital,0.946,33.118
Uganda,Kikwayi Health Centre II,Health Centre II,0.1957,32.9142
Burundi,Gakungu Centre de Santé,Health Centre,-3.7501,30.3225
Uganda,Nakaale Health Centre II,Health Centre II,1.8664,34.6122
Uganda,Nyakimasa Health Centre II,Health Centre II,0.0464,29.7623
Uganda,Lusaalira Health Centre II,Health Centre II,0.3048,31.8413
Uganda,Kiboga Kambugu Health Centre II,Health Centre II,0.8072,31.7837
Uganda,Bupoto COU Health Centre II,Health Centre II,0.9068,34.357
Uganda,Ludara Health Centre III,Health Centre III,3.5191,31.0021
Burundi,Ruyigi Hôpital de District,Hôpital de District,-3.4726,30.2481
Uganda,Tajar Health Centre II,Health Centre II,1.3961,34.2382
Uganda,Kahama Health Centre II,Health Centre II,-1.1283,30.0773
Uganda,St. Apolo Health Centre III,Health Centre III,0.264,32.581
Uganda,Orwigi Health Centre II,Health Centre II,0.0582,30.9228
Uganda,Bunono Health Centre II,Health Centre II,-1.0278,30.0437
Uganda,Kigaaga (Mbarara) Health Centre II,Health Centre II,-0.6273,30.6202
Uganda,Alangi Health Centre III,Health Centre III,2.578,30.823
Uganda,Namulikya Health Centre II,Health Centre II,1.086,33.242
Uganda,Nasuleta Health Centre II,Health Centre II,1.1932,33.8733
Uganda,Isunga Health Centre III,Health Centre III,0.909,30.8896
Burundi,Bisoro Centre de Santé,Health Centre,-3.6366,29.706
Rwanda,Gitare Health Centre,Health Centre,-1.3906,29.7665
Uganda,Butenga Health Centre IV,Health Centre IV,-0.192,31.685
Uganda,Napumpum Health Centre III,Health Centre III,2.7688,34.0605
Uganda,Biggaga Health Centre II,Health Centre II,-1.4657,29.9174
Uganda,Kitana Health Centre II,Health Centre II,1.6279,31.3163
Uganda,Bugabira Health Centre II,Health Centre II,-0.278,31.725
Uganda,Kilak Health Centre III,Health Centre III,2.7644,32.9686
Uganda,Kyakiddu Health Centre II,Health Centre II,0.683,31.7015
Uganda,Kiboga Katwe Health Centre III,Health Centre III,0.9317,31.8242
Burundi,Ryansoro Centre de Santé,Health Centre,-3.71,29.79
Uganda,Kitayunjwa Health Centre III,Health Centre III,0.8986,33.1533
Uganda,Wiianaka Health Centre II,Health Centre II,2.5805,31.7741
Burundi,Birimba Centre de Santé,Health Centre,-3.9774,29.4469
Burundi,Rweza Centre de Santé,Health Centre,-4.1064,29.607
Uganda,Namiringa Health Centre II,Health Centre II,0.9867,31.8558
Uganda,Kyampisi Health Centre III,Health Centre III,0.51,32.722
Burundi,Bubera Centre de Santé,Health Centre,-3.9182,29.5028
Uganda,Lwaki Health Centre II,Health Centre II,0.671,33.407
Uganda,Gombe Health Centre II,Health Centre II,0.513,32.4816
Uganda,Nsala Health Centre II,Health Centre II,0.801,31.91
Uganda,Kwoti Health Centre II,Health Centre II,1.3644,34.4577
Uganda,Aripea Health Centre III,Health Centre III,3.1731,31.0408
Rwanda,Nyamisa Fosacom Community-owned health facility,Health Post ,-1.9404,29.6266
Uganda,Ngarama Health Centre III,Health Centre III,-0.919,30.856
Uganda,Tunyi Health Centre II,Health Centre II,1.2471,34.348
Uganda,Birongo Health Centre III,Health Centre III,-0.0138,31.8062
Burundi,Ruyigi Centre de Santé,Health Centre,-3.4727,30.2487
Uganda,Mild May Hospital,Hospital,0.3851,32.476
Burundi,Kabezi Hôpital de District,Hôpital de District,-3.5367,29.349
Uganda,Katimba Health Centre III,Health Centre III,-0.257,31.562
Rwanda,Gatumba Fosacom Community-owned health facility,Health Post ,-1.929,29.6481
Uganda,Muwumba Health Centre III,Health Centre III,0.4219,33.2133
Uganda,Kitoole Health Centre II,Health Centre II,1.246,31.289
Uganda,Iganga Hospital,Hospital,0.6152,33.4797
Uganda,Nyendo Health Centre II,Health Centre II,-0.32,31.759
Uganda,Child In Need Institute Health Centre III,Health Centre III,0.3198,32.4867
Uganda,Ndejje Health Centre IV,Health Centre IV,0.242,32.578
Burundi,Busangana Centre de Santé,Health Centre,-3.1556,29.6181
Burundi,Cibitoke Centre de Santé,Health Centre,-2.8811,29.1255
Rwanda,Mabuye Fosacom Community-owned health facility,Health Post ,-1.9152,29.519
Rwanda,Rwerere Health Centre,Health Centre,-1.5014,29.8695
Rwanda,Gatsibo Health Centre,Health Centre,-1.5826,30.2391
Uganda,Olujobo Health Centre III,Health Centre III,3.0737,31.4056
Uganda,Kikamulo Health Centre III,Health Centre III,0.8333,32.3667
Rwanda,Gasiza Fosacom Community-owned health facility,Health Post ,-1.8183,29.5082
Uganda,Mukathi Health Centre III,Health Centre III,0.3308,30.1222
Uganda,Maracha Health Centre IV,Health Centre IV,3.25,30.9167
Uganda,Karwesanga Health Centre II,Health Centre II,-0.3303,30.5387
Uganda,Kyengando Health Centre II,Health Centre II,-0.0646,30.6692
Uganda,Rukarabo Health Centre II,Health Centre II,-0.787,30.6093
Uganda,Kihuukya Health Centre II,Health Centre II,1.44,31.3362
Uganda,Kopoth Health Centre II,Health Centre II,3.3676,34.1218
Uganda,Lorengechora Health Centre III,Health Centre III,2.2222,34.2544
Uganda,Rubaya Health Centre II,Health Centre II,-0.222,30.471
Burundi,Bukeye II Centre de Santé,Health Centre,-4.3349,29.6188
Rwanda,Nyakabungo Health Centre,Health Centre,-1.8391,30.5809
Uganda,Nagwere Health Centre III,Health Centre III,1.176,33.878
Uganda,Bukomero Health Centre IV,Health Centre IV,0.6909,32.0318
Uganda,Kiyunga Health Centre II,Health Centre II,0.7771,33.0724
Uganda,Pamaka Health Centre II,Health Centre II,2.376,31.109
Uganda,Kanywambogo Health Centre III,Health Centre III,-0.167,30.348
Rwanda,Mucaca Health Centre,Health Centre,-1.389,29.67
Uganda,Namutamba Health Centre III,Health Centre III,0.52,32.088
Uganda,Rwerere Health Centre II,Health Centre II,-0.681,29.937
Uganda,Butalangu Health Centre II,Health Centre II,0.823,32.2444
Burundi,Kigwena I Centre de Santé,Health Centre,-4.1425,29.5334
Burundi,Mugogo Centre de Santé,Health Centre,-3.0701,29.9652
Uganda,Kyesha Health Centre II,Health Centre II,1.1005,34.33
Uganda,Atiak Health Centre IV,Health Centre IV,3.2869,32.1183
Uganda,Lugasa Health Centre III,Health Centre III,0.88,32.827
Uganda,Busabi Health Centre III,Health Centre III,0.7716,33.8748
Rwanda,Kabaya Health Centre,Health Centre,-1.7473,29.5379
Rwanda,Nyanza Health Centre,Health Centre,-2.3525,29.7487
Rwanda,Musenyi (Nyagatare) Fosacom Community-owned health facility,Health Post ,-1.4582,30.6982
Uganda,Namulesa Health Centre II,Health Centre II,0.2487,33.0096
Uganda,Rurama Health Centre II,Health Centre II,-0.5127,29.9689
Rwanda,Buruhukiro Health Centre,Health Centre,-2.4509,29.362
Uganda,Nkungu Health Centre III,Health Centre III,0.122,30.758
Uganda,Lokitelaebu Health Centre II,Health Centre II,2.9916,33.9957
Uganda,Kikka Yokana Domiciliary Health Centre II,Health Centre II,0.3199,32.1496
Uganda,Flama Uganda Health Centre II,Health Centre II,2.7794,32.3008
Uganda,Kureku Health Centre II,Health Centre II,3.3086,31.8016
Burundi,Prince Regent Charles Hospital (HPRC) Hôpital Tertiaire,Hôpital Tertiaire,-3.3743,29.3622
Uganda,Oladot Health Centre II,Health Centre II,1.2393,33.863
Uganda,Ochelakur Health Centre II,Health Centre II,1.745,33.3718
Uganda,Wangobo Health Centre II,Health Centre II,0.7159,33.6779
Rwanda,Rwamagana Provincial Hospital,Provincial Hospital,-1.9503,30.4331
Uganda,Kiyoola Health Centre II,Health Centre II,0.237,32.867
Uganda,Anaka Hospital,Hospital,2.5944,31.9633
Uganda,Nyamarebe Health Centre III,Health Centre III,-0.0797,30.5296
Uganda,Imvepi Health Centre II,Health Centre II,3.2342,31.2818
Uganda,Namungo Health Centre III,Health Centre III,0.437,32.188
Uganda,Aya Health Centre II,Health Centre II,3.6736,31.8273
Uganda,Bulike Health Centre III,Health Centre III,0.7814,33.3236
Uganda,Komamboga Health Centre III,Health Centre III,0.3906,32.5844
Uganda,Kimuli Health Centre III,Health Centre III,-0.599,31.304
Rwanda,Mpembe Health Centre,Health Centre,-2.1178,29.2655
Uganda,Magabi Health Centre II,Health Centre II,-0.8908,31.2478
Uganda,Kyakarafa Health Centre II,Health Centre II,0.3729,30.4781
Uganda,Haama Health Centre II,Health Centre II,-0.1395,33.7073
Uganda,Kulikulinga Health Centre III,Health Centre III,3.296,31.294
Uganda,Riki Health Centre III,Health Centre III,3.0222,31.0364
Rwanda,Rubaya (ngororera) Health Centre,Health Centre,-1.7765,29.5032
Uganda,Ssambwe Health Centre II,Health Centre II,0.1877,31.9761
Uganda,Mafubira Health Centre II,Health Centre II,0.472,33.21
Burundi,Mmk Centre de Santé,Health Centre,-3.4021,29.9079
Uganda,Kikalu Health Centre II,Health Centre II,0.9452,33.6065
Uganda,Okollo Health Centre III,Health Centre III,2.6582,31.1474
Burundi,Gisuka Centre de Santé,Health Centre,-2.8197,29.9555
Uganda,Kinyabwamba Health Centre III,Health Centre III,0.3003,30.1793
Uganda,Rugazi Health Centre IV,Health Centre IV,-0.292,30.063
Uganda,Mbaliga Health Centre II,Health Centre II,0.4028,32.7718
Uganda,St. Kevin Toroma Health Centre III,Health Centre III,1.7836,33.9673
Uganda,Bugamba Health Centre IV,Health Centre IV,-0.743,30.52
Uganda,Buzaaya Health Centre II,Health Centre II,0.8864,33.4142
Uganda,Kyanamukaaka Health Centre IV,Health Centre IV,-0.5382,31.7566
Uganda,Rwakishakizi Health Centre II,Health Centre II,-0.656,30.543
Uganda,Kiranga Health Centre II,Health Centre II,0.861,33.561
Uganda,Nampologoma Health Centre II,Health Centre II,0.9678,34.0257
Uganda,Nyakibigi Health Centre II,Health Centre II,-0.8375,30.2575
Burundi,Kinama Centre de Santé,Health Centre,-3.3096,29.5197
Uganda,Jinja Regional Referral Hospital,Hospital,0.4302,33.2108
Uganda,Mairinya Health Centre II,Health Centre II,0.3979,33.684
Uganda,Life Care Clinic,Clinic,-0.5418,30.1422
Uganda,Kirumandagi Health Centre II,Health Centre II,0.8189,32.6204
Uganda,Gitovu Health Centre II,Health Centre II,-1.2055,29.6278
Uganda,Para Government Health Centre II,Health Centre II,2.5406,31.8485
Uganda,Okwongo Health Centre III,Health Centre III,2.51,33.2624
Uganda,Buwongo Health Centre II,Health Centre II,0.6503,33.4957
Burundi,Nyaruganda Centre de Santé,Health Centre,-3.6522,30.1911
Uganda,Lwangoli Health Centre III,Health Centre III,0.9647,34.1471
Rwanda,Nyabitare (kirehe) Health Centre,Health Centre,-2.2134,30.7951
Uganda,Karera Health Centre II,Health Centre II,-0.6188,30.3025
Uganda,Ikaali Health Centre II,Health Centre II,0.8843,34.2891
Uganda,Kisabagwa Health Centre II,Health Centre II,1.542,31.42
Rwanda,Humure Health Centre,Health Centre,-1.6829,30.3065
Burundi,Masango Centre de Santé,Health Centre,-2.6384,29.1961
Burundi,Kankima Centre de Santé,Health Centre,-3.4389,29.5184
Uganda,Nsangi Health Centre III,Health Centre III,0.2738,32.4479
Uganda,Ocea Health Centre II,Health Centre II,3.0766,31.2822
Uganda,Busano Health Centre II,Health Centre II,1.0133,34.2656
Burundi,Nyakaraye Centre de Santé,Health Centre,-3.4314,29.7891
Uganda,Nchwanga Health Centre II,Health Centre II,0.7233,31.3622
Uganda,Bushiyi Health Centre III,Health Centre III,1.0515,34.3854
Uganda,Wakiso Kambugu Health Centre II,Health Centre II,0.0882,32.5053
Uganda,Ngetta Health Centre III,Health Centre III,2.3144,32.9258
